{"type":"FeatureCollection","features":[{"type":"Feature","properties":{"name":"大崎","name_en":"Osaki","network":"りんかい線","railway":"station"},"geometry":{"type":"Point","coordinates":[139.7284866,35.6193903]}},{"type":"Feature","properties":{"name":"中目黒","name_en":"Naka-meguro","network":"","railway":"station"},"geometry":{"type":"Point","coordinates":[139.6988317,35.6441395]}},{"type":"Feature","properties":{"name":"門前仲町","name_en":"Monzen-nakacho","network":"","railway":"station"},"geometry":{"type":"Point","coordinates":[139.7950674,35.6722878]}},{"type":"Feature","properties":{"name":"恵比寿","name_en":"Ebisu","network":"日比谷線","railway":"station"},"geometry":{"type":"Point","coordinates":[139.7086461,35.6469738]}},{"type":"Feature","properties":{"name":"目黒","name_en":"Meguro","network":"","railway":"station"},"geometry":{"type":"Point","coordinates":[139.7157717,35.6325078]}},{"type":"Feature","properties":{"name":"新線新宿","name_en":"Shinsen-Shinjuku","network":"都営地下鉄","railway":"station"},"geometry":{"type":"Point","coordinates":[139.699177,35.6886028]}},{"type":"Feature","properties":{"name":"東福生","name_en":"Higashi-Fussa","network":"JR八高線(八王子～高麗川)","railway":"station"},"geometry":{"type":"Point","coordinates":[139.3359519,35.7457424]}},{"type":"Feature","properties":{"name":"若松河田","name_en":"Wakamatsu-kawada","network":"都営地下鉄","railway":"station"},"geometry":{"type":"Point","coordinates":[139.7184084,35.6992849]}},{"type":"Feature","properties":{"name":"本郷三丁目","name_en":"Hongo-sanchome","network":"","railway":"station"},"geometry":{"type":"Point","coordinates":[139.7599627,35.7066386]}},{"type":"Feature","properties":{"name":"王子神谷","name_en":"Oji-kamiya","network":"東京メトロ","railway":"station"},"geometry":{"type":"Point","coordinates":[139.7357178,35.7650552]}},{"type":"Feature","properties":{"name":"東大前","name_en":"Todaimae","network":"東京メトロ","railway":"station"},"geometry":{"type":"Point","coordinates":[139.7581767,35.7173365]}},{"type":"Feature","properties":{"name":"西葛西","name_en":"Nishi-kasai","network":"","railway":"station"},"geometry":{"type":"Point","coordinates":[139.8593173,35.6645795]}},{"type":"Feature","properties":{"name":"南砂町","name_en":"Minami-sunamachi","network":"","railway":"station"},"geometry":{"type":"Point","coordinates":[139.8318642,35.6683446]}},{"type":"Feature","properties":{"name":"東陽町","name_en":"Toyocho","network":"","railway":"station"},"geometry":{"type":"Point","coordinates":[139.8174761,35.6695961]}},{"type":"Feature","properties":{"name":"葛西","name_en":"Kasai","network":"","railway":"station"},"geometry":{"type":"Point","coordinates":[139.8726921,35.6636282]}},{"type":"Feature","properties":{"name":"木場","name_en":"Kiba","network":"","railway":"station"},"geometry":{"type":"Point","coordinates":[139.8065455,35.669416]}},{"type":"Feature","properties":{"name":"大手町","name_en":"Otemachi","network":"","railway":"station"},"geometry":{"type":"Point","coordinates":[139.7664613,35.6846087]}},{"type":"Feature","properties":{"name":"西日暮里","name_en":"Nishi-nippori","network":"東京メトロ","railway":"station"},"geometry":{"type":"Point","coordinates":[139.7672175,35.7325841]}},{"type":"Feature","properties":{"name":"大手町","name_en":"Otemachi","network":"東京メトロ","railway":"station"},"geometry":{"type":"Point","coordinates":[139.7650376,35.6866919]}},{"type":"Feature","properties":{"name":"大手町","name_en":"Otemachi","network":"東京メトロ","railway":"station"},"geometry":{"type":"Point","coordinates":[139.7636157,35.686757]}},{"type":"Feature","properties":{"name":"新宿","name_en":"Shinjuku","network":"東京メトロ","railway":"station"},"geometry":{"type":"Point","coordinates":[139.7006009,35.6922273]}},{"type":"Feature","properties":{"name":"人形町","name_en":"Ningyōchō","network":"都営地下鉄","railway":"station"},"geometry":{"type":"Point","coordinates":[139.7821879,35.6862799]}},{"type":"Feature","properties":{"name":"東銀座","name_en":"Higashi-Ginza","network":"東京メトロ","railway":"station"},"geometry":{"type":"Point","coordinates":[139.7669476,35.6696837]}},{"type":"Feature","properties":{"name":"築地","name_en":"Tsukiji","network":"東京メトロ","railway":"station"},"geometry":{"type":"Point","coordinates":[139.7725918,35.6680848]}},{"type":"Feature","properties":{"name":"千川","name_en":"Senkawa","network":"","railway":"station"},"geometry":{"type":"Point","coordinates":[139.689366,35.7383242]}},{"type":"Feature","properties":{"name":"東池袋","name_en":"Higashi-ikebukuro","network":"","railway":"station"},"geometry":{"type":"Point","coordinates":[139.7193857,35.7256214]}},{"type":"Feature","properties":{"name":"永田町","name_en":"Nagatacho","network":"","railway":"station"},"geometry":{"type":"Point","coordinates":[139.7415775,35.6779456]}},{"type":"Feature","properties":{"name":"池袋","name_en":"Ikebukuro","network":"","railway":"station"},"geometry":{"type":"Point","coordinates":[139.7096856,35.729643]}},{"type":"Feature","properties":{"name":"要町","name_en":"Kanamecho","network":"","railway":"station"},"geometry":{"type":"Point","coordinates":[139.6986842,35.7332405]}},{"type":"Feature","properties":{"name":"新富町","name_en":"Shintomicho","network":"","railway":"station"},"geometry":{"type":"Point","coordinates":[139.7734197,35.6706344]}},{"type":"Feature","properties":{"name":"月島","name_en":"Tsukishima","network":"都営大江戸線","railway":"station"},"geometry":{"type":"Point","coordinates":[139.7844793,35.6641695]}},{"type":"Feature","properties":{"name":"池袋","name_en":"Ikebukuro","network":"","railway":"station"},"geometry":{"type":"Point","coordinates":[139.7114846,35.7302282]}},{"type":"Feature","properties":{"name":"茗荷谷","name_en":"Myogadani","network":"","railway":"station"},"geometry":{"type":"Point","coordinates":[139.7369396,35.7171896]}},{"type":"Feature","properties":{"name":"三越前","name_en":"Mitsukoshimae","network":"東京メトロ半蔵門線","railway":"station"},"geometry":{"type":"Point","coordinates":[139.7730743,35.6849516]}},{"type":"Feature","properties":{"name":"大門","name_en":"Daimon","network":"浅草線","railway":"station"},"geometry":{"type":"Point","coordinates":[139.7547098,35.6569261]}},{"type":"Feature","properties":{"name":"落合","name_en":"Ochiai","network":"","railway":"station"},"geometry":{"type":"Point","coordinates":[139.6859133,35.7106637]}},{"type":"Feature","properties":{"name":"東新宿","name_en":"Higashi-shinjuku","network":"","railway":"station"},"geometry":{"type":"Point","coordinates":[139.707695,35.698933]}},{"type":"Feature","properties":{"name":"雑司が谷","name_en":"Zoshigaya","network":"","railway":"station"},"geometry":{"type":"Point","coordinates":[139.7147782,35.7202465]}},{"type":"Feature","properties":{"name":"白金台","name_en":"Shirokanedai","network":"都営地下鉄","railway":"station"},"geometry":{"type":"Point","coordinates":[139.7265652,35.6381027]}},{"type":"Feature","properties":{"name":"白金高輪","name_en":"Shirokane-takanawa","network":"都営地下鉄","railway":"station"},"geometry":{"type":"Point","coordinates":[139.734168,35.6429531]}},{"type":"Feature","properties":{"name":"新宿","name_en":"Shinjuku","network":"都営地下鉄","railway":"station"},"geometry":{"type":"Point","coordinates":[139.6990749,35.6883635]}},{"type":"Feature","properties":{"name":"新宿西口","name_en":"Shinjuku-nishiguchi","network":"都営地下鉄","railway":"station"},"geometry":{"type":"Point","coordinates":[139.6991763,35.6931366]}},{"type":"Feature","properties":{"name":"牛込柳町","name_en":"Ushigome-yanagicho","network":"都営地下鉄","railway":"station"},"geometry":{"type":"Point","coordinates":[139.7255744,35.6994561]}},{"type":"Feature","properties":{"name":"牛込神楽坂","name_en":"Ushigome-kagurazaka","network":"都営地下鉄","railway":"station"},"geometry":{"type":"Point","coordinates":[139.7359501,35.7009139]}},{"type":"Feature","properties":{"name":"新高島平","name_en":"Shin-takashimadaira","network":"都営地下鉄","railway":"station"},"geometry":{"type":"Point","coordinates":[139.6544258,35.7902142]}},{"type":"Feature","properties":{"name":"本郷三丁目","name_en":"Hongo-sanchome","network":"都営地下鉄","railway":"station"},"geometry":{"type":"Point","coordinates":[139.7605489,35.7075159]}},{"type":"Feature","properties":{"name":"京急蒲田","name_en":"Keikyu Kamata","network":"","railway":"station"},"geometry":{"type":"Point","coordinates":[139.7241595,35.5613307]}},{"type":"Feature","properties":{"name":"品川","name_en":"Shinagawa","network":"","railway":"station"},"geometry":{"type":"Point","coordinates":[139.7380078,35.6280038]}},{"type":"Feature","properties":{"name":"立会川","name_en":"Tachiaigawa","network":"","railway":"station"},"geometry":{"type":"Point","coordinates":[139.7389803,35.5986986]}},{"type":"Feature","properties":{"name":"志茂","name_en":"Shimo","network":"","railway":"station"},"geometry":{"type":"Point","coordinates":[139.7325256,35.7779045]}},{"type":"Feature","properties":{"name":"中野","name_en":"Nakano","network":"","railway":"station"},"geometry":{"type":"Point","coordinates":[139.665633,35.7058302]}},{"type":"Feature","properties":{"name":"小竹向原","name_en":"Kotake-mukaihara","network":"","railway":"station"},"geometry":{"type":"Point","coordinates":[139.6795267,35.7433734]}},{"type":"Feature","properties":{"name":"西ケ原","name_en":"Nishigahara","network":"","railway":"station"},"geometry":{"type":"Point","coordinates":[139.7421722,35.7460496]}},{"type":"Feature","properties":{"name":"茅場町","name_en":"Kayabacho","network":"","railway":"station"},"geometry":{"type":"Point","coordinates":[139.7794236,35.6802291]}},{"type":"Feature","properties":{"name":"四ツ谷","name_en":"Yotsuya","network":"ロ丸ノ内線","railway":"station"},"geometry":{"type":"Point","coordinates":[139.7299237,35.6849915]}},{"type":"Feature","properties":{"name":"綾瀬","name_en":"Ayase","network":"","railway":"station"},"geometry":{"type":"Point","coordinates":[139.8248669,35.7621283]}},{"type":"Feature","properties":{"name":"押上〈スカイツリー前〉","name_en":"Oshiage 'SKYTREE'","network":"","railway":"station"},"geometry":{"type":"Point","coordinates":[139.8132943,35.7102863]}},{"type":"Feature","properties":{"name":"明治神宮前〈原宿〉","name_en":"Meiji-jingumae 'Harajuku'","network":"千代田線","railway":"station"},"geometry":{"type":"Point","coordinates":[139.7043604,35.6689704]}},{"type":"Feature","properties":{"name":"新木場","name_en":"Shin-Kiba","network":"JR京葉線","railway":"station"},"geometry":{"type":"Point","coordinates":[139.8274057,35.6461534]}},{"type":"Feature","properties":{"name":"後楽園","name_en":"Korakuen","network":"東京メトロ丸ノ内線","railway":"station"},"geometry":{"type":"Point","coordinates":[139.7512155,35.7073372]}},{"type":"Feature","properties":{"name":"九段下","name_en":"Kudanshita","network":"","railway":"station"},"geometry":{"type":"Point","coordinates":[139.7512822,35.6959079]}},{"type":"Feature","properties":{"name":"四ツ谷","name_en":"Yotsuya","network":"","railway":"station"},"geometry":{"type":"Point","coordinates":[139.7295015,35.6855979]}},{"type":"Feature","properties":{"name":"市ケ谷","name_en":"Ichigaya","network":"東京メトロ南北線","railway":"station"},"geometry":{"type":"Point","coordinates":[139.7366562,35.6932032]}},{"type":"Feature","properties":{"name":"飯田橋","name_en":"Iidabashi","network":"","railway":"station"},"geometry":{"type":"Point","coordinates":[139.7436346,35.7015405]}},{"type":"Feature","properties":{"name":"後楽園","name_en":"Korakuen","network":"東京メトロ南北線","railway":"station"},"geometry":{"type":"Point","coordinates":[139.751799,35.7082639]}},{"type":"Feature","properties":{"name":"本駒込","name_en":"Hon-komagome","network":"","railway":"station"},"geometry":{"type":"Point","coordinates":[139.7537008,35.7247631]}},{"type":"Feature","properties":{"name":"駒込","name_en":"Komagome","network":"","railway":"station"},"geometry":{"type":"Point","coordinates":[139.7467609,35.7359873]}},{"type":"Feature","properties":{"name":"王子","name_en":"Oji","network":"","railway":"station"},"geometry":{"type":"Point","coordinates":[139.7375243,35.7539617]}},{"type":"Feature","properties":{"name":"赤羽岩淵","name_en":"Akabane-iwabuchi","network":"","railway":"station"},"geometry":{"type":"Point","coordinates":[139.7221,35.7834478]}},{"type":"Feature","properties":{"name":"新宿三丁目","name_en":"Shinjuku-sanchome","network":"副都心線","railway":"station"},"geometry":{"type":"Point","coordinates":[139.7047597,35.6907365]}},{"type":"Feature","properties":{"name":"氷川台","name_en":"Hikawadai","network":"","railway":"station"},"geometry":{"type":"Point","coordinates":[139.6650083,35.7497818]}},{"type":"Feature","properties":{"name":"平和台","name_en":"Heiwadai","network":"","railway":"station"},"geometry":{"type":"Point","coordinates":[139.6541369,35.7576885]}},{"type":"Feature","properties":{"name":"地下鉄赤塚","name_en":"Chikatetsu-akatsuka","network":"","railway":"station"},"geometry":{"type":"Point","coordinates":[139.6441259,35.7699229]}},{"type":"Feature","properties":{"name":"地下鉄成増","name_en":"Chikatetsu-narimasu","network":"","railway":"station"},"geometry":{"type":"Point","coordinates":[139.6312465,35.7766946]}},{"type":"Feature","properties":{"name":"高田馬場","name_en":"Takadanobaba","network":"","railway":"station"},"geometry":{"type":"Point","coordinates":[139.7050188,35.7133806]}},{"type":"Feature","properties":{"name":"早稲田","name_en":"Waseda","network":"東京メトロ東西線","railway":"station"},"geometry":{"type":"Point","coordinates":[139.721191,35.7058028]}},{"type":"Feature","properties":{"name":"神楽坂","name_en":"Kagurazaka","network":"","railway":"station"},"geometry":{"type":"Point","coordinates":[139.7341347,35.7039298]}},{"type":"Feature","properties":{"name":"飯田橋","name_en":"Iidabashi","network":"東京メトロ東西線","railway":"station"},"geometry":{"type":"Point","coordinates":[139.7459937,35.7017139]}},{"type":"Feature","properties":{"name":"日本橋","name_en":"Nihombashi","network":"","railway":"station"},"geometry":{"type":"Point","coordinates":[139.7744933,35.6822079]}},{"type":"Feature","properties":{"name":"三田","name_en":"Mita","network":"都営地下鉄","railway":"station"},"geometry":{"type":"Point","coordinates":[139.7483983,35.6476619]}},{"type":"Feature","properties":{"name":"大手町","name_en":"Otemachi","network":"都営地下鉄","railway":"station"},"geometry":{"type":"Point","coordinates":[139.7626637,35.6840162]}},{"type":"Feature","properties":{"name":"水道橋","name_en":"Suidobashi","network":"都営地下鉄","railway":"station"},"geometry":{"type":"Point","coordinates":[139.7551538,35.7035144]}},{"type":"Feature","properties":{"name":"春日","name_en":"Kasuga","network":"都営地下鉄","railway":"station"},"geometry":{"type":"Point","coordinates":[139.7531843,35.7098805]}},{"type":"Feature","properties":{"name":"白山","name_en":"Hakusan","network":"都営地下鉄","railway":"station"},"geometry":{"type":"Point","coordinates":[139.7521578,35.7215048]}},{"type":"Feature","properties":{"name":"千石","name_en":"Sengoku","network":"都営地下鉄","railway":"station"},"geometry":{"type":"Point","coordinates":[139.7449946,35.7277122]}},{"type":"Feature","properties":{"name":"巣鴨","name_en":"Sugamo","network":"都営地下鉄","railway":"station"},"geometry":{"type":"Point","coordinates":[139.7382188,35.7337873]}},{"type":"Feature","properties":{"name":"池袋","name_en":"Ikebukuro","network":"","railway":"station"},"geometry":{"type":"Point","coordinates":[139.7089439,35.7311425]}},{"type":"Feature","properties":{"name":"代々木","name_en":"Yoyogi","network":"","railway":"station"},"geometry":{"type":"Point","coordinates":[139.7015967,35.6835694]}},{"type":"Feature","properties":{"name":"仲御徒町","name_en":"Naka-okachimachi","network":"","railway":"station"},"geometry":{"type":"Point","coordinates":[139.7761952,35.7064914]}},{"type":"Feature","properties":{"name":"住吉","name_en":"Sumiyoshi","network":"","railway":"station"},"geometry":{"type":"Point","coordinates":[139.8156854,35.6889959]}},{"type":"Feature","properties":{"name":"森下","name_en":"Morishita","network":"都営地下鉄","railway":"station"},"geometry":{"type":"Point","coordinates":[139.7970443,35.6879977]}},{"type":"Feature","properties":{"name":"清澄白河","name_en":"Kiyosumi-shirakawa","network":"都営地下鉄;東京メトロ","railway":"station"},"geometry":{"type":"Point","coordinates":[139.7987644,35.6820504]}},{"type":"Feature","properties":{"name":"赤坂見附","name_en":"Akasaka-mitsuke","network":"東京メトロ丸ノ内線;銀座線","railway":"station"},"geometry":{"type":"Point","coordinates":[139.7375253,35.6763213]}},{"type":"Feature","properties":{"name":"小川町","name_en":"Ogawamachi","network":"都営地下鉄","railway":"station"},"geometry":{"type":"Point","coordinates":[139.7662986,35.6949465]}},{"type":"Feature","properties":{"name":"神保町","name_en":"Jimbocho","network":"都営地下鉄","railway":"station"},"geometry":{"type":"Point","coordinates":[139.7582694,35.695008]}},{"type":"Feature","properties":{"name":"九段下","name_en":"Kudanshita","network":"都営地下鉄新宿線","railway":"station"},"geometry":{"type":"Point","coordinates":[139.7503783,35.6953694]}},{"type":"Feature","properties":{"name":"九段下","name_en":"Kudanshita","network":"","railway":"station"},"geometry":{"type":"Point","coordinates":[139.7505069,35.6952299]}},{"type":"Feature","properties":{"name":"湯島","name_en":"Yushima","network":"東京メトロ千代田線","railway":"station"},"geometry":{"type":"Point","coordinates":[139.7700104,35.7073329]}},{"type":"Feature","properties":{"name":"日比谷","name_en":"Hibiya","network":"東京メトロ","railway":"station"},"geometry":{"type":"Point","coordinates":[139.7583499,35.6737302]}},{"type":"Feature","properties":{"name":"桜田門","name_en":"Sakuradamon","network":"東京メトロ有楽町線","railway":"station"},"geometry":{"type":"Point","coordinates":[139.7515757,35.6774009]}},{"type":"Feature","properties":{"name":"日比谷","name_en":"Hibiya","network":"都営地下鉄","railway":"station"},"geometry":{"type":"Point","coordinates":[139.7601969,35.6762399]}},{"type":"Feature","properties":{"name":"有楽町","name_en":"Yurakucho","network":"東京メトロ有楽町線","railway":"station"},"geometry":{"type":"Point","coordinates":[139.7621359,35.6759691]}},{"type":"Feature","properties":{"name":"東京","name_en":"Tokyo","network":"東京メトロ丸ノ内線","railway":"station"},"geometry":{"type":"Point","coordinates":[139.7649584,35.6820173]}},{"type":"Feature","properties":{"name":"霞ケ関","name_en":"Kasumigaseki","network":"千代田線","railway":"station"},"geometry":{"type":"Point","coordinates":[139.7516221,35.6725014]}},{"type":"Feature","properties":{"name":"霞ケ関","name_en":"Kasumigaseki","network":"東京メト","railway":"station"},"geometry":{"type":"Point","coordinates":[139.7510565,35.6738544]}},{"type":"Feature","properties":{"name":"霞ケ関","name_en":"Kasumigaseki","network":"","railway":"station"},"geometry":{"type":"Point","coordinates":[139.7527174,35.674217]}},{"type":"Feature","properties":{"name":"新御茶ノ水","name_en":"Shin-ochanomizu","network":"","railway":"station"},"geometry":{"type":"Point","coordinates":[139.7656264,35.6972185]}},{"type":"Feature","properties":{"name":"上野御徒町","name_en":"Ueno-okachimachi","network":"都営地下鉄","railway":"station"},"geometry":{"type":"Point","coordinates":[139.7732996,35.7079766]}},{"type":"Feature","properties":{"name":"国会議事堂前","name_en":"Kokkai-gijidomae","network":"千代田線, 丸ノ内線, 銀座線, 南北線","railway":"station"},"geometry":{"type":"Point","coordinates":[139.7434262,35.6736889]}},{"type":"Feature","properties":{"name":"溜池山王","name_en":"Tameike-sanno","network":"","railway":"station"},"geometry":{"type":"Point","coordinates":[139.741424,35.6729903]}},{"type":"Feature","properties":{"name":"溜池山王","name_en":"Tameike-sanno","network":"","railway":"station"},"geometry":{"type":"Point","coordinates":[139.741961,35.6715337]}},{"type":"Feature","properties":{"name":"都庁前","name_en":"Tochomae","network":"都営地下鉄","railway":"station"},"geometry":{"type":"Point","coordinates":[139.692814,35.6906065]}},{"type":"Feature","properties":{"name":"代々木公園","name_en":"Yoyogi-koen","network":"千代田線","railway":"station"},"geometry":{"type":"Point","coordinates":[139.6901224,35.6690323]}},{"type":"Feature","properties":{"name":"国立競技場","name_en":"Kokuritsu-kyogijo","network":"都営地下鉄","railway":"station"},"geometry":{"type":"Point","coordinates":[139.7139442,35.6801003]}},{"type":"Feature","properties":{"name":"半蔵門","name_en":"Hanzomon","network":"","railway":"station"},"geometry":{"type":"Point","coordinates":[139.7415832,35.6852213]}},{"type":"Feature","properties":{"name":"新御徒町","name_en":"Shin-okachimachi","network":"都営地下鉄","railway":"station"},"geometry":{"type":"Point","coordinates":[139.7818428,35.7070597]}},{"type":"Feature","properties":{"name":"赤坂","name_en":"Akasaka","network":"千代田線","railway":"station"},"geometry":{"type":"Point","coordinates":[139.736388,35.672224]}},{"type":"Feature","properties":{"name":"東雲","name_en":"Shinonome","network":"","railway":"station"},"geometry":{"type":"Point","coordinates":[139.8036235,35.64073]}},{"type":"Feature","properties":{"name":"天王洲アイル","name_en":"Tennozu Isle","network":"","railway":"station"},"geometry":{"type":"Point","coordinates":[139.7508785,35.6205792]}},{"type":"Feature","properties":{"name":"品川シーサイド","name_en":"Shinagawa Seaside","network":"","railway":"station"},"geometry":{"type":"Point","coordinates":[139.7498775,35.6097199]}},{"type":"Feature","properties":{"name":"大井町","name_en":"Oimachi","network":"","railway":"station"},"geometry":{"type":"Point","coordinates":[139.7344119,35.6074432]}},{"type":"Feature","properties":{"name":"国際展示場","name_en":"Kokusai-tenjijo","network":"","railway":"station"},"geometry":{"type":"Point","coordinates":[139.7917555,35.6344374]}},{"type":"Feature","properties":{"name":"新木場","name_en":"Shin-kiba","network":"","railway":"station"},"geometry":{"type":"Point","coordinates":[139.8266597,35.6459052]}},{"type":"Feature","properties":{"name":"中野坂上","name_en":"Nakano-sakaue","network":"","railway":"station"},"geometry":{"type":"Point","coordinates":[139.6817498,35.6971173]}},{"type":"Feature","properties":{"name":"中野坂上","name_en":"Nakano-sakaue","network":"都営地下鉄","railway":"station"},"geometry":{"type":"Point","coordinates":[139.6829208,35.6972839]}},{"type":"Feature","properties":{"name":"表参道","name_en":"Omote-sando","network":"銀座線;千代田線;半蔵門線","railway":"station"},"geometry":{"type":"Point","coordinates":[139.7125432,35.6651609]}},{"type":"Feature","properties":{"name":"渋谷","name_en":"Shibuya","network":"銀座線","railway":"station"},"geometry":{"type":"Point","coordinates":[139.7024447,35.658999]}},{"type":"Feature","properties":{"name":"渋谷","name_en":"Shibuya","network":"東急電鉄;東京地下鉄","railway":"station"},"geometry":{"type":"Point","coordinates":[139.7028426,35.6584501]}},{"type":"Feature","properties":{"name":"渋谷","name_en":"Shibuya","network":"","railway":"station"},"geometry":{"type":"Point","coordinates":[139.701972,35.659501]}},{"type":"Feature","properties":{"name":"六本木一丁目","name_en":"Roppongi-itchome","network":"","railway":"station"},"geometry":{"type":"Point","coordinates":[139.738849,35.6649728]}},{"type":"Feature","properties":{"name":"新橋","name_en":"Shimbashi","network":"ロ銀座線","railway":"station"},"geometry":{"type":"Point","coordinates":[139.7588592,35.6671895]}},{"type":"Feature","properties":{"name":"新橋","name_en":"Shimbashi","network":"都営地下鉄","railway":"station"},"geometry":{"type":"Point","coordinates":[139.759388,35.6654012]}},{"type":"Feature","properties":{"name":"日比谷","name_en":"Hibiya","network":"日比谷線","railway":"station"},"geometry":{"type":"Point","coordinates":[139.760332,35.6744172]}},{"type":"Feature","properties":{"name":"汐留","name_en":"Shiodome","network":"都営地下鉄","railway":"station"},"geometry":{"type":"Point","coordinates":[139.7602718,35.6632377]}},{"type":"Feature","properties":{"name":"芝公園","name_en":"Shibakoen","network":"都営地下鉄","railway":"station"},"geometry":{"type":"Point","coordinates":[139.7498924,35.654237]}},{"type":"Feature","properties":{"name":"浅草","name_en":"Asakusa","network":"","railway":"station"},"geometry":{"type":"Point","coordinates":[139.7978163,35.7108423]}},{"type":"Feature","properties":{"name":"南千住","name_en":"Minami-senju","network":"","railway":"station"},"geometry":{"type":"Point","coordinates":[139.7988024,35.7323539]}},{"type":"Feature","properties":{"name":"岩本町","name_en":"Iwamotocho","network":"都営地下鉄","railway":"station"},"geometry":{"type":"Point","coordinates":[139.7753176,35.695614]}},{"type":"Feature","properties":{"name":"秋葉原","name_en":"Akihabara","network":"","railway":"station"},"geometry":{"type":"Point","coordinates":[139.775504,35.6984622]}},{"type":"Feature","properties":{"name":"日本橋","name_en":"Nihombashi","network":"","railway":"station"},"geometry":{"type":"Point","coordinates":[139.7733976,35.6820843]}},{"type":"Feature","properties":{"name":"日本橋","name_en":"Nihombashi","network":"都営地下鉄","railway":"station"},"geometry":{"type":"Point","coordinates":[139.7758101,35.6818307]}},{"type":"Feature","properties":{"name":"三越前","name_en":"Mitsukoshimae","network":"Tokyo Metro Ginza Line","railway":"station"},"geometry":{"type":"Point","coordinates":[139.7736283,35.687054]}},{"type":"Feature","properties":{"name":"春日","name_en":"Kasuga","network":"都営地下鉄","railway":"station"},"geometry":{"type":"Point","coordinates":[139.7527409,35.7084896]}},{"type":"Feature","properties":{"name":"市ケ谷","name_en":"Ichigaya","network":"東京メトロ有楽町線","railway":"station"},"geometry":{"type":"Point","coordinates":[139.736689,35.6923805]}},{"type":"Feature","properties":{"name":"飯田橋","name_en":"Iidabashi","network":"都営地下鉄","railway":"station"},"geometry":{"type":"Point","coordinates":[139.7457081,35.7031331]}},{"type":"Feature","properties":{"name":"銀座","name_en":"Ginza","network":"","railway":"station"},"geometry":{"type":"Point","coordinates":[139.7631029,35.6728411]}},{"type":"Feature","properties":{"name":"銀座","name_en":"Ginza","network":"","railway":"station"},"geometry":{"type":"Point","coordinates":[139.7638932,35.6720707]}},{"type":"Feature","properties":{"name":"銀座","name_en":"Ginza","network":"","railway":"station"},"geometry":{"type":"Point","coordinates":[139.7652995,35.6714622]}},{"type":"Feature","properties":{"name":"豊洲","name_en":"Toyosu","network":"","railway":"station"},"geometry":{"type":"Point","coordinates":[139.796174,35.6549298]}},{"type":"Feature","properties":{"name":"明治神宮前〈原宿〉","name_en":"Meiji-jingumae 'Harajuku'","network":"副都心線","railway":"station"},"geometry":{"type":"Point","coordinates":[139.705341,35.6684209]}},{"type":"Feature","properties":{"name":"月島","name_en":"Tsukishima","network":"","railway":"station"},"geometry":{"type":"Point","coordinates":[139.7845639,35.664645]}},{"type":"Feature","properties":{"name":"泉岳寺","name_en":"Sengakuji","network":"","railway":"station"},"geometry":{"type":"Point","coordinates":[139.7400615,35.6387807]}},{"type":"Feature","properties":{"name":"新宿三丁目","name_en":"Shinjuku-sanchome","network":"丸ノ内線","railway":"station"},"geometry":{"type":"Point","coordinates":[139.7040936,35.6911965]}},{"type":"Feature","properties":{"name":"新宿三丁目","name_en":"Shinjuku-sanchome","network":"新宿線","railway":"station"},"geometry":{"type":"Point","coordinates":[139.70626,35.6906011]}},{"type":"Feature","properties":{"name":"新宿","name_en":"Shinjuku","network":"JR成田エクスプレス","railway":"station"},"geometry":{"type":"Point","coordinates":[139.7010645,35.6891301]}},{"type":"Feature","properties":{"name":"青山一丁目","name_en":"Aoyama-itchome","network":"都営地下鉄","railway":"station"},"geometry":{"type":"Point","coordinates":[139.7240186,35.6727797]}},{"type":"Feature","properties":{"name":"東銀座","name_en":"Higashi-Ginza","network":"都営地下鉄","railway":"station"},"geometry":{"type":"Point","coordinates":[139.7672583,35.6698189]}},{"type":"Feature","properties":{"name":"神田","name_en":"Kanda","network":"","railway":"station"},"geometry":{"type":"Point","coordinates":[139.7708898,35.6937148]}},{"type":"Feature","properties":{"name":"銀座一丁目","name_en":"Ginza-itchome","network":"","railway":"station"},"geometry":{"type":"Point","coordinates":[139.7670332,35.6743469]}},{"type":"Feature","properties":{"name":"辰巳","name_en":"Tatsumi","network":"","railway":"station"},"geometry":{"type":"Point","coordinates":[139.8107392,35.6454772]}},{"type":"Feature","properties":{"name":"御成門","name_en":"Onarimon","network":"都営地下鉄","railway":"station"},"geometry":{"type":"Point","coordinates":[139.7513591,35.6608011]}},{"type":"Feature","properties":{"name":"水天宮前","name_en":"Suitengumae","network":"","railway":"station"},"geometry":{"type":"Point","coordinates":[139.7856405,35.6825235]}},{"type":"Feature","properties":{"name":"浜町","name_en":"Hamacho","network":"","railway":"station"},"geometry":{"type":"Point","coordinates":[139.7881422,35.6884743]}},{"type":"Feature","properties":{"name":"荻窪","name_en":"Ogikubo","network":"","railway":"station"},"geometry":{"type":"Point","coordinates":[139.6200267,35.7042744]}},{"type":"Feature","properties":{"name":"勝どき","name_en":"Kachidoki","network":"都営地下鉄","railway":"station"},"geometry":{"type":"Point","coordinates":[139.7771747,35.6589623]}},{"type":"Feature","properties":{"name":"乃木坂","name_en":"Nogizaka","network":"東京メトロ","railway":"station"},"geometry":{"type":"Point","coordinates":[139.726365,35.6666651]}},{"type":"Feature","properties":{"name":"麻布十番","name_en":"Azabu-juban","network":"都営地下鉄","railway":"station"},"geometry":{"type":"Point","coordinates":[139.7361613,35.6565014]}},{"type":"Feature","properties":{"name":"江戸川橋","name_en":"Edogawabashi","network":"東京メトロ","railway":"station"},"geometry":{"type":"Point","coordinates":[139.7335636,35.7095155]}},{"type":"Feature","properties":{"name":"護国寺","name_en":"Gokokuji","network":"","railway":"station"},"geometry":{"type":"Point","coordinates":[139.7274629,35.7190787]}},{"type":"Feature","properties":{"name":"錦糸町","name_en":"Kinshicho","network":"","railway":"station"},"geometry":{"type":"Point","coordinates":[139.8150431,35.6963122]}},{"type":"Feature","properties":{"name":"東新宿","name_en":"Higashi-shinjuku","network":"都営地下鉄","railway":"station"},"geometry":{"type":"Point","coordinates":[139.7075443,35.6978967]}},{"type":"Feature","properties":{"name":"光が丘","name_en":"Hikarigaoka","network":"都営地下鉄","railway":"station"},"geometry":{"type":"Point","coordinates":[139.6293801,35.7585523]}},{"type":"Feature","properties":{"name":"中野新橋","name_en":"Nakano-shimbashi","network":"","railway":"station"},"geometry":{"type":"Point","coordinates":[139.6738042,35.692021]}},{"type":"Feature","properties":{"name":"麻布十番","name_en":"Azabu-juban","network":"","railway":"station"},"geometry":{"type":"Point","coordinates":[139.7371506,35.6551789]}},{"type":"Feature","properties":{"name":"西新宿五丁目","name_en":"Nishi-shinjuku-gochome","network":"都営地下鉄","railway":"station"},"geometry":{"type":"Point","coordinates":[139.6845183,35.6898839]}},{"type":"Feature","properties":{"name":"北参道","name_en":"Kita-sando","network":"","railway":"station"},"geometry":{"type":"Point","coordinates":[139.705414,35.6784974]}},{"type":"Feature","properties":{"name":"西早稲田","name_en":"Nishi-waseda","network":"","railway":"station"},"geometry":{"type":"Point","coordinates":[139.7090404,35.7079347]}},{"type":"Feature","properties":{"name":"根津","name_en":"Nezu","network":"","railway":"station"},"geometry":{"type":"Point","coordinates":[139.7657175,35.7173914]}},{"type":"Feature","properties":{"name":"町屋","name_en":"Machiya","network":"","railway":"station"},"geometry":{"type":"Point","coordinates":[139.7800901,35.7421779]}},{"type":"Feature","properties":{"name":"千駄木","name_en":"Sendagi","network":"","railway":"station"},"geometry":{"type":"Point","coordinates":[139.7632458,35.7255677]}},{"type":"Feature","properties":{"name":"赤羽橋","name_en":"Akabanebashi","network":"都営地下鉄","railway":"station"},"geometry":{"type":"Point","coordinates":[139.7439828,35.6550406]}},{"type":"Feature","properties":{"name":"北綾瀬","name_en":"Kita-ayase","network":"","railway":"station"},"geometry":{"type":"Point","coordinates":[139.832145,35.7768999]}},{"type":"Feature","properties":{"name":"外苑前","name_en":"Gaiemmae","network":"","railway":"station"},"geometry":{"type":"Point","coordinates":[139.7178823,35.6704649]}},{"type":"Feature","properties":{"name":"京橋","name_en":"Kyobashi","network":"","railway":"station"},"geometry":{"type":"Point","coordinates":[139.7700412,35.676696]}},{"type":"Feature","properties":{"name":"末広町","name_en":"Suehirocho","network":"","railway":"station"},"geometry":{"type":"Point","coordinates":[139.7716793,35.7029361]}},{"type":"Feature","properties":{"name":"上野広小路","name_en":"Ueno-hirokoji","network":"","railway":"station"},"geometry":{"type":"Point","coordinates":[139.7729909,35.7078328]}},{"type":"Feature","properties":{"name":"上野","name_en":"Ueno","network":"","railway":"station"},"geometry":{"type":"Point","coordinates":[139.7761542,35.7117081]}},{"type":"Feature","properties":{"name":"稲荷町","name_en":"Inaricho","network":"","railway":"station"},"geometry":{"type":"Point","coordinates":[139.7826851,35.7113867]}},{"type":"Feature","properties":{"name":"田原町","name_en":"Tawaramachi","network":"東京メトロ","railway":"station"},"geometry":{"type":"Point","coordinates":[139.7907549,35.7098357]}},{"type":"Feature","properties":{"name":"新大塚","name_en":"Shin-otsuka","network":"","railway":"station"},"geometry":{"type":"Point","coordinates":[139.7299234,35.7257823]}},{"type":"Feature","properties":{"name":"御茶ノ水","name_en":"Ochanomizu","network":"","railway":"station"},"geometry":{"type":"Point","coordinates":[139.764082,35.7005755]}},{"type":"Feature","properties":{"name":"新宿御苑前","name_en":"Shinjuku-gyoemmae","network":"","railway":"station"},"geometry":{"type":"Point","coordinates":[139.7107396,35.6885735]}},{"type":"Feature","properties":{"name":"新中野","name_en":"Shin-nakano","network":"","railway":"station"},"geometry":{"type":"Point","coordinates":[139.6686428,35.6974599]}},{"type":"Feature","properties":{"name":"国会議事堂前","name_en":"Kokkai-gijidomae","network":"","railway":"station"},"geometry":{"type":"Point","coordinates":[139.7455534,35.6745485]}},{"type":"Feature","properties":{"name":"淡路町","name_en":"Awajicho","network":"","railway":"station"},"geometry":{"type":"Point","coordinates":[139.767473,35.6950614]}},{"type":"Feature","properties":{"name":"大手町","name_en":"Otemachi","network":"","railway":"station"},"geometry":{"type":"Point","coordinates":[139.7662244,35.6867882]}},{"type":"Feature","properties":{"name":"四谷三丁目","name_en":"Yotsuya-sanchome","network":"","railway":"station"},"geometry":{"type":"Point","coordinates":[139.7205752,35.687988]}},{"type":"Feature","properties":{"name":"西新宿","name_en":"Nishi-shinjuku","network":"","railway":"station"},"geometry":{"type":"Point","coordinates":[139.6927667,35.6944315]}},{"type":"Feature","properties":{"name":"虎ノ門","name_en":"Toranomon","network":"ロ銀座線","railway":"station"},"geometry":{"type":"Point","coordinates":[139.750056,35.6701871]}},{"type":"Feature","properties":{"name":"東高円寺","name_en":"Higashi-koenji","network":"","railway":"station"},"geometry":{"type":"Point","coordinates":[139.6581601,35.6979717]}},{"type":"Feature","properties":{"name":"新高円寺","name_en":"Shin-koenji","network":"","railway":"station"},"geometry":{"type":"Point","coordinates":[139.648688,35.6978735]}},{"type":"Feature","properties":{"name":"南阿佐ケ谷","name_en":"Minami-asagaya","network":"","railway":"station"},"geometry":{"type":"Point","coordinates":[139.6357088,35.6993987]}},{"type":"Feature","properties":{"name":"虎ノ門ヒルズ","name_en":"Toranomon Hills","network":"東京メトロ","railway":"station"},"geometry":{"type":"Point","coordinates":[139.7477648,35.6674688]}},{"type":"Feature","properties":{"name":"神谷町","name_en":"Kamiyacho","network":"","railway":"station"},"geometry":{"type":"Point","coordinates":[139.7450477,35.662964]}},{"type":"Feature","properties":{"name":"六本木","name_en":"Roppongi","network":"","railway":"station"},"geometry":{"type":"Point","coordinates":[139.7313268,35.6628364]}},{"type":"Feature","properties":{"name":"広尾","name_en":"Hiro-o","network":"","railway":"station"},"geometry":{"type":"Point","coordinates":[139.7222033,35.6520629]}},{"type":"Feature","properties":{"name":"麹町","name_en":"Kojimachi","network":"","railway":"station"},"geometry":{"type":"Point","coordinates":[139.7376514,35.6840244]}},{"type":"Feature","properties":{"name":"八丁堀","name_en":"Hatchobori","network":"","railway":"station"},"geometry":{"type":"Point","coordinates":[139.7770726,35.6750004]}},{"type":"Feature","properties":{"name":"茅場町","name_en":"Kayabacho","network":"","railway":"station"},"geometry":{"type":"Point","coordinates":[139.779738,35.6792567]}},{"type":"Feature","properties":{"name":"小伝馬町","name_en":"Kodemmacho","network":"","railway":"station"},"geometry":{"type":"Point","coordinates":[139.7784526,35.6907525]}},{"type":"Feature","properties":{"name":"上野","name_en":"Ueno","network":"","railway":"station"},"geometry":{"type":"Point","coordinates":[139.7775694,35.7118212]}},{"type":"Feature","properties":{"name":"入谷","name_en":"Iriya","network":"","railway":"station"},"geometry":{"type":"Point","coordinates":[139.7845821,35.720709]}},{"type":"Feature","properties":{"name":"三ノ輪","name_en":"Minowa","network":"","railway":"station"},"geometry":{"type":"Point","coordinates":[139.7913004,35.7295502]}},{"type":"Feature","properties":{"name":"方南町","name_en":"Honancho","network":"","railway":"station"},"geometry":{"type":"Point","coordinates":[139.6576888,35.6835007]}},{"type":"Feature","properties":{"name":"中野富士見町","name_en":"Nakano-fujimicho","network":"","railway":"station"},"geometry":{"type":"Point","coordinates":[139.6670329,35.6905641]}},{"type":"Feature","properties":{"name":"東日本橋","name_en":"Higashi-nihombashi","network":"都営地下鉄","railway":"station"},"geometry":{"type":"Point","coordinates":[139.7848848,35.6921239]}},{"type":"Feature","properties":{"name":"浅草橋","name_en":"Asakusabashi","network":"都営地下鉄","railway":"station"},"geometry":{"type":"Point","coordinates":[139.7863101,35.6973915]}},{"type":"Feature","properties":{"name":"蔵前","name_en":"Kuramae","network":"都営地下鉄","railway":"station"},"geometry":{"type":"Point","coordinates":[139.790939,35.7032122]}},{"type":"Feature","properties":{"name":"練馬春日町","name_en":"Nerima-kasugacho","network":"都営地下鉄","railway":"station"},"geometry":{"type":"Point","coordinates":[139.6403755,35.751398]}},{"type":"Feature","properties":{"name":"宝町","name_en":"Takaracho","network":"都営地下鉄","railway":"station"},"geometry":{"type":"Point","coordinates":[139.7718846,35.6754339]}},{"type":"Feature","properties":{"name":"高輪台","name_en":"Takanawadai","network":"都営地下鉄","railway":"station"},"geometry":{"type":"Point","coordinates":[139.7304256,35.6317345]}},{"type":"Feature","properties":{"name":"戸越","name_en":"Togoshi","network":"都営地下鉄","railway":"station"},"geometry":{"type":"Point","coordinates":[139.7163642,35.614502]}},{"type":"Feature","properties":{"name":"豊島園","name_en":"Toshimaen","network":"都営地下鉄","railway":"station"},"geometry":{"type":"Point","coordinates":[139.6490783,35.7421722]}},{"type":"Feature","properties":{"name":"落合南長崎","name_en":"Ochiai-minami-nagasaki","network":"都営地下鉄","railway":"station"},"geometry":{"type":"Point","coordinates":[139.6835782,35.7232248]}},{"type":"Feature","properties":{"name":"本所吾妻橋","name_en":"Honjo-azumabashi","network":"都営地下鉄","railway":"station"},"geometry":{"type":"Point","coordinates":[139.8043487,35.7085609]}},{"type":"Feature","properties":{"name":"浅草","name_en":"Asakusa","network":"都営地下鉄","railway":"station"},"geometry":{"type":"Point","coordinates":[139.7965668,35.708959]}},{"type":"Feature","properties":{"name":"中延","name_en":"Nakanobu","network":"都営地下鉄","railway":"station"},"geometry":{"type":"Point","coordinates":[139.7136531,35.605254]}},{"type":"Feature","properties":{"name":"五反田","name_en":"Gotanda","network":"都営地下鉄","railway":"station"},"geometry":{"type":"Point","coordinates":[139.7242137,35.6270895]}},{"type":"Feature","properties":{"name":"馬込","name_en":"Magome","network":"都営地下鉄","railway":"station"},"geometry":{"type":"Point","coordinates":[139.7119274,35.5967788]}},{"type":"Feature","properties":{"name":"西馬込","name_en":"Nishi-magome","network":"都営地下鉄","railway":"station"},"geometry":{"type":"Point","coordinates":[139.7063115,35.5872987]}},{"type":"Feature","properties":{"name":"中井","name_en":"Nakai","network":"都営地下鉄","railway":"station"},"geometry":{"type":"Point","coordinates":[139.6863482,35.714067]}},{"type":"Feature","properties":{"name":"東中野","name_en":"Higashi-nakano","network":"都営地下鉄","railway":"station"},"geometry":{"type":"Point","coordinates":[139.6832315,35.7073477]}},{"type":"Feature","properties":{"name":"六本木","name_en":"Roppongi","network":"都営地下鉄","railway":"station"},"geometry":{"type":"Point","coordinates":[139.7319706,35.6635758]}},{"type":"Feature","properties":{"name":"築地市場","name_en":"Tsukijishijo","network":"都営地下鉄","railway":"station"},"geometry":{"type":"Point","coordinates":[139.7668843,35.6648789]}},{"type":"Feature","properties":{"name":"門前仲町","name_en":"Monzen-nakacho","network":"都営地下鉄","railway":"station"},"geometry":{"type":"Point","coordinates":[139.7950012,35.6726188]}},{"type":"Feature","properties":{"name":"両国","name_en":"Ryogoku","network":"都営地下鉄","railway":"station"},"geometry":{"type":"Point","coordinates":[139.7974284,35.6968538]}},{"type":"Feature","properties":{"name":"蔵前","name_en":"Kuramae","network":"都営地下鉄","railway":"station"},"geometry":{"type":"Point","coordinates":[139.7924102,35.7055187]}},{"type":"Feature","properties":{"name":"内幸町","name_en":"Uchisaiwaicho","network":"都営地下鉄","railway":"station"},"geometry":{"type":"Point","coordinates":[139.7553799,35.6694556]}},{"type":"Feature","properties":{"name":"曙橋","name_en":"Akebonobashi","network":"都営地下鉄","railway":"station"},"geometry":{"type":"Point","coordinates":[139.7228634,35.6924146]}},{"type":"Feature","properties":{"name":"市ケ谷","name_en":"Ichigaya","network":"都営地下鉄","railway":"station"},"geometry":{"type":"Point","coordinates":[139.7376683,35.6915471]}},{"type":"Feature","properties":{"name":"神保町","name_en":"Jimbocho","network":"都営地下鉄","railway":"station"},"geometry":{"type":"Point","coordinates":[139.7583937,35.6959719]}},{"type":"Feature","properties":{"name":"馬喰横山","name_en":"Bakuroyokoyama","network":"都営地下鉄","railway":"station"},"geometry":{"type":"Point","coordinates":[139.7827937,35.6921222]}},{"type":"Feature","properties":{"name":"船堀","name_en":"Funabori","network":"都営地下鉄","railway":"station"},"geometry":{"type":"Point","coordinates":[139.864297,35.6838309]}},{"type":"Feature","properties":{"name":"大島","name_en":"Ojima","network":"都営地下鉄","railway":"station"},"geometry":{"type":"Point","coordinates":[139.835076,35.6897695]}},{"type":"Feature","properties":{"name":"東大島","name_en":"Higashi-ojima","network":"都営地下鉄","railway":"station"},"geometry":{"type":"Point","coordinates":[139.8459524,35.6902967]}},{"type":"Feature","properties":{"name":"新板橋","name_en":"Shin-itabashi","network":"都営地下鉄","railway":"station"},"geometry":{"type":"Point","coordinates":[139.7199032,35.7487966]}},{"type":"Feature","properties":{"name":"志村坂上","name_en":"Shimura-sakaue","network":"都営地下鉄","railway":"station"},"geometry":{"type":"Point","coordinates":[139.6955288,35.7756688]}},{"type":"Feature","properties":{"name":"高島平","name_en":"Takashimadaira","network":"都営地下鉄","railway":"station"},"geometry":{"type":"Point","coordinates":[139.6612548,35.7889131]}},{"type":"Feature","properties":{"name":"西大島","name_en":"Nishi-ojima","network":"都営地下鉄","railway":"station"},"geometry":{"type":"Point","coordinates":[139.8266345,35.6893724]}},{"type":"Feature","properties":{"name":"菊川","name_en":"Kikukawa","network":"都営地下鉄","railway":"station"},"geometry":{"type":"Point","coordinates":[139.806123,35.6884156]}},{"type":"Feature","properties":{"name":"一之江","name_en":"Ichinoe","network":"都営地下鉄","railway":"station"},"geometry":{"type":"Point","coordinates":[139.8831198,35.6860437]}},{"type":"Feature","properties":{"name":"羽田空港第3ターミナル","name_en":"Haneda Airport Terminal 3","network":"","railway":"station"},"geometry":{"type":"Point","coordinates":[139.7670385,35.5450118]}},{"type":"Feature","properties":{"name":"天空橋","name_en":"Tenkubashi","network":"","railway":"station"},"geometry":{"type":"Point","coordinates":[139.7546775,35.54812]}},{"type":"Feature","properties":{"name":"穴守稲荷","name_en":"Anamori-Inari","network":"","railway":"station"},"geometry":{"type":"Point","coordinates":[139.7467757,35.5503099]}},{"type":"Feature","properties":{"name":"大鳥居","name_en":"Otorii","network":"","railway":"station"},"geometry":{"type":"Point","coordinates":[139.7395158,35.5525175]}},{"type":"Feature","properties":{"name":"糀谷","name_en":"Kojiya","network":"","railway":"station"},"geometry":{"type":"Point","coordinates":[139.7294667,35.5547016]}},{"type":"Feature","properties":{"name":"平和島","name_en":"Heiwajima","network":"","railway":"station"},"geometry":{"type":"Point","coordinates":[139.7349686,35.5787037]}},{"type":"Feature","properties":{"name":"青物横丁","name_en":"Aomono-yokocho","network":"","railway":"station"},"geometry":{"type":"Point","coordinates":[139.7430769,35.6088735]}},{"type":"Feature","properties":{"name":"人形町","name_en":"Ningyocho","network":"東京メトロ","railway":"station"},"geometry":{"type":"Point","coordinates":[139.7824162,35.6861848]}},{"type":"Feature","properties":{"name":"白金高輪","name_en":"Shirokane-takanawa","network":"東京メトロ","railway":"station"},"geometry":{"type":"Point","coordinates":[139.7341529,35.6429263]}},{"type":"Feature","properties":{"name":"泉岳寺","name_en":"Sengakuji","network":"","railway":"station"},"geometry":{"type":"Point","coordinates":[139.7400118,35.6386825]}},{"type":"Feature","properties":{"name":"大門","name_en":"Daimon","network":"大江戸線","railway":"station"},"geometry":{"type":"Point","coordinates":[139.7553648,35.6567438]}},{"type":"Feature","properties":{"name":"押上〈スカイツリー前〉","name_en":"Oshiage 'SKYTREE'","network":"","railway":"station"},"geometry":{"type":"Point","coordinates":[139.8128217,35.7106337]}},{"type":"Feature","properties":{"name":"永田町","name_en":"Nagatacho","network":"","railway":"station"},"geometry":{"type":"Point","coordinates":[139.7389145,35.6784518]}},{"type":"Feature","properties":{"name":"北千住","name_en":"Kita-Senju","network":"","railway":"station"},"geometry":{"type":"Point","coordinates":[139.8054115,35.7495017]}},{"type":"Feature","properties":{"name":"永田町","name_en":"Nagatacho","network":"","railway":"station"},"geometry":{"type":"Point","coordinates":[139.7391968,35.6785619]}}]}